[{"icao":"KIAH","iata":"IAH","name":"George Bush Intercontinental Airport","location":{"city":"Houston","state":"Texas","country":"United States","iso":"US","coordinates":[29.99022,-95.336784]}},{"icao":"KLGA","iata":"LGA","name":"LaGuardia Airport","location":{"city":"New York City","state":"New York","country":"United States","iso":"US","coordinates":[40.776928,-73.87396]}},{"icao":"KMCO","iata":"MCO","name":"Orlando International Airport","location":{"city":"Orlando","state":"Florida","country":"United States","iso":"US","coordinates":[28.431158,-81.30808]}},{"icao":"KMCO","iata":"MCO","name":"Orlando International Airport","location":{"city":"Orlando","state":"Florida","country":"United States","iso":"US","coordinates":[28.431158,-81.30808]}},{"icao":"KMSY","iata":"MSY","name":"Louis Armstrong New Orleans International Airport","location":{"city":"New Orleans","state":"Louisiana","country":"United States","iso":"US","coordinates":[29.9922,-90.25901]}},{"icao":"KMSY","iata":"MSY","name":"Louis Armstrong New Orleans International Airport","location":{"city":"New Orleans","state":"Louisiana","country":"United States","iso":"US","coordinates":[29.9922,-90.25901]}},{"icao":"KORD","iata":"ORD","name":"O'Hare International Airport","location":{"city":"Chicago","state":"Illinois","country":"United States","iso":"US","coordinates":[41.974163,-87.90732]}},{"icao":"KORD","iata":"ORD","name":"O'Hare International Airport","location":{"city":"Chicago","state":"Illinois","country":"United States","iso":"US","coordinates":[41.974163,-87.90732]}},{"icao":"KDEN","iata":"DEN","name":"Denver International Airport","location":{"city":"Denver","state":"Colorado","country":"United States","iso":"US","coordinates":[39.8561,-104.67374]}},{"icao":"KDEN","iata":"DEN","name":"Denver International Airport","location":{"city":"Denver","state":"Colorado","country":"United States","iso":"US","coordinates":[39.8561,-104.67374]}},{"icao":"KLAS","iata":"LAS","name":"McCarran International Airport","location":{"city":"Las Vegas","state":"Nevada","country":"United States","iso":"US","coordinates":[36.084,-115.15374]}},{"icao":"KLAS","iata":"LAS","name":"McCarran International Airport","location":{"city":"Las Vegas","state":"Nevada","country":"United States","iso":"US","coordinates":[36.084,-115.15374]}},{"icao":"KLAX","iata":"LAX","name":"Los Angeles International Airport","location":{"city":"Los Angeles","state":"California","country":"United States","iso":"US","coordinates":[33.94159,-118.40853]}},{"icao":"KLAX","iata":"LAX","name":"Los Angeles International Airport","location":{"city":"Los Angeles","state":"California","country":"United States","iso":"US","coordinates":[33.94159,-118.40853]}},{"icao":"KATL","iata":"ATL","name":"Hartsfield–Jackson Atlanta International Airport","location":{"city":"Atlanta","state":"Georgia","country":"United States","iso":"US","coordinates":[33.640728,-84.427704]}},{"icao":"KATL","iata":"ATL","name":"Hartsfield–Jackson Atlanta International Airport","location":{"city":"Atlanta","state":"Georgia","country":"United States","iso":"US","coordinates":[33.640728,-84.427704]}},{"icao":"CYYZ","iata":"YYZ","name":"Toronto Pearson International Airport","location":{"city":"Toronto","state":"Ontario","country":"Canada","iso":"CA","coordinates":[43.67772,-79.62482]}},{"icao":"CYYZ","iata":"YYZ","name":"Toronto Pearson International Airport","location":{"city":"Toronto","state":"Ontario","country":"Canada","iso":"CA","coordinates":[43.67772,-79.62482]}},{"icao":"KDFW","iata":"DFW","name":"Dallas/Fort Worth International Airport","location":{"city":"Dallas / Fort Worth","state":"Texas","country":"United States","iso":"US","coordinates":[32.89981,-97.04034]}},{"icao":"KDFW","iata":"DFW","name":"Dallas/Fort Worth International Airport","location":{"city":"Dallas / Fort Worth","state":"Texas","country":"United States","iso":"US","coordinates":[32.89981,-97.04034]}}]